,Provider ID,Hospital Name,Address,City,State,ZIP Code,County Name,Phone Number,Hospital Type,Hospital Ownership,Emergency Services,Meets criteria for meaningful use of EHRs,Hospital overall rating,Hospital overall rating footnote,Mortality national comparison,Mortality national comparison footnote,Safety of care national comparison,Safety of care national comparison footnote,Readmission national comparison,Readmission national comparison footnote,Patient experience national comparison,Patient experience national comparison footnote,Effectiveness of care national comparison,Effectiveness of care national comparison footnote,Timeliness of care national comparison,Timeliness of care national comparison footnote,Efficient use of medical imaging national comparison,Efficient use of medical imaging national comparison footnote,lat,lng,mark,notes
0,10001,SOUTHEAST ALABAMA MEDICAL CENTER,1108 ROSS CLARK CIRCLE,DOTHAN,AL,36301,HOUSTON,3347938701,Acute Care Hospitals,Government - Hospital District or Authority,Yes,Y,3,,Same as the national average,,Above the national average,,Same as the national average,,Below the national average,,Same as the national average,,Same as the national average,,Same as the national average,,31.216215,-85.362856,,
1,10005,MARSHALL MEDICAL CENTER SOUTH,2505 U S HIGHWAY 431 NORTH,BOAZ,AL,35957,MARSHALL,2565938310,Acute Care Hospitals,Government - Hospital District or Authority,Yes,Y,3,,Below the national average,,Same as the national average,,Above the national average,,Same as the national average,,Same as the national average,,Above the national average,,Below the national average,,34.228677,-86.162027,,
2,10006,ELIZA COFFEE MEMORIAL HOSPITAL,205 MARENGO STREET,FLORENCE,AL,35631,LAUDERDALE,2567688400,Acute Care Hospitals,Government - Hospital District or Authority,Yes,Y,2,,Below the national average,,Same as the national average,,Same as the national average,,Below the national average,,Same as the national average,,Above the national average,,Same as the national average,,34.79366,-87.684348,,
3,10007,MIZELL MEMORIAL HOSPITAL,702 N MAIN ST,OPP,AL,36467,COVINGTON,3344933541,Acute Care Hospitals,Voluntary non-profit - Private,Yes,Y,2,,Same as the national average,,Not Available,Results are not available for this reporting period,Below the national average,,Same as the national average,,Below the national average,,Above the national average,,Not Available,Results are not available for this reporting period,31.291972,-86.255415,,
4,10008,CRENSHAW COMMUNITY HOSPITAL,101 HOSPITAL CIRCLE,LUVERNE,AL,36049,CRENSHAW,3343353374,Acute Care Hospitals,Proprietary,Yes,Y,3,,Same as the national average,,Not Available,Results are not available for this reporting period,Same as the national average,,Not Available,Results are not available for this reporting period,Same as the national average,,Above the national average,,Not Available,Results are not available for this reporting period,31.693554,-86.265102,,
5,10011,ST VINCENT'S EAST,50 MEDICAL PARK EAST DRIVE,BIRMINGHAM,AL,35235,JEFFERSON,2058383122,Acute Care Hospitals,Voluntary non-profit - Private,Yes,Y,2,,Same as the national average,,Below the national average,,Same as the national average,,Below the national average,,Below the national average,,Same as the national average,,Same as the national average,,33.595351,-86.665182,,
6,10012,DEKALB REGIONAL MEDICAL CENTER,200 MED CENTER DRIVE,FORT PAYNE,AL,35968,DE KALB,2568453150,Acute Care Hospitals,Proprietary,Yes,Y,3,,Below the national average,,Same as the national average,,Same as the national average,,Same as the national average,,Same as the national average,,Above the national average,,Same as the national average,,34.483747,-85.766974,,
7,10016,SHELBY BAPTIST MEDICAL CENTER,1000 FIRST STREET NORTH,ALABASTER,AL,35007,SHELBY,2056208100,Acute Care Hospitals,Voluntary non-profit - Private,Yes,Y,3,,Same as the national average,,Above the national average,,Above the national average,,Below the national average,,Same as the national average,,Below the national average,,Below the national average,,33.253679,-86.814261,,
8,10018,CALLAHAN EYE HOSPITAL,1720 UNIVERSITY BLVD,BIRMINGHAM,AL,35233,JEFFERSON,2053258100,Acute Care Hospitals,Voluntary non-profit - Private,Yes,Y,Not Available,There are too few measures or measure groups reported to calculate a star rating or measure group score,Not Available,Results are not available for this reporting period,Not Available,Results are not available for this reporting period,Not Available,Results are not available for this reporting period,Not Available,Results are not available for this reporting period,Same as the national average,,Same as the national average,,Not Available,Results are not available for this reporting period,33.503137,-86.802401,,
9,10019,HELEN KELLER MEMORIAL HOSPITAL,1300 SOUTH MONTGOMERY AVENUE,SHEFFIELD,AL,35660,COLBERT,2563864556,Acute Care Hospitals,Government - Hospital District or Authority,Yes,Y,2,,Below the national average,,Below the national average,,Below the national average,,Below the national average,,Same as the national average,,Above the national average,,Below the national average,,34.748249,-87.698866,,
10,10021,DALE MEDICAL CENTER,126 HOSPITAL AVE,OZARK,AL,36360,DALE,3347742601,Acute Care Hospitals,Government - Hospital District or Authority,Yes,Y,4,,Same as the national average,,Same as the national average,,Same as the national average,,Above the national average,,Same as the national average,,Above the national average,,Same as the national average,,31.451855,-85.630941,,
11,10022,CHEROKEE MEDICAL CENTER,400 NORTHWOOD DR,CENTRE,AL,35960,CHEROKEE,2569275531,Acute Care Hospitals,Voluntary non-profit - Private,Yes,Y,4,,Same as the national average,,Not Available,Results are not available for this reporting period,Same as the national average,,Above the national average,,Same as the national average,,Same as the national average,,Not Available,Results are not available for this reporting period,34.161957,-85.651428,,
12,10023,BAPTIST MEDICAL CENTER SOUTH,2105 EAST SOUTH BOULEVARD,MONTGOMERY,AL,36116,MONTGOMERY,3342882100,Acute Care Hospitals,Government - Hospital District or Authority,Yes,Y,3,,Below the national average,,Above the national average,,Same as the national average,,Below the national average,,Same as the national average,,Below the national average,,Above the national average,,32.327144,-86.276764,,
13,10024,JACKSON HOSPITAL & CLINIC INC,1725 PINE STREET,MONTGOMERY,AL,36106,MONTGOMERY,3342938000,Acute Care Hospitals,Voluntary non-profit - Private,Yes,Y,3,,Same as the national average,,Above the national average,,Above the national average,,Same as the national average,,Same as the national average,,Below the national average,,Same as the national average,,32.366605,-86.285267,,
14,10029,EAST ALABAMA MEDICAL CENTER,2000 PEPPERELL PARKWAY,OPELIKA,AL,36801,LEE,3347493411,Acute Care Hospitals,Government - Hospital District or Authority,Yes,Y,4,,Same as the national average,,Above the national average,,Above the national average,,Above the national average,,Same as the national average,,Above the national average,,Same as the national average,,32.638055,-85.404003,,
15,10032,WEDOWEE HOSPITAL,209 NORTH MAIN STREET,WEDOWEE,AL,36278,RANDOLPH,2563572111,Acute Care Hospitals,Government - Hospital District or Authority,Yes,Y,4,,Same as the national average,,Not Available,Results are not available for this reporting period,Same as the national average,,Not Available,Results are not available for this reporting period,Same as the national average,,Same as the national average,,Not Available,Results are not available for this reporting period,33.31409,-85.486007,,
16,10033,UNIVERSITY OF ALABAMA HOSPITAL,619 SOUTH 19TH STREET,BIRMINGHAM,AL,35233,JEFFERSON,2059344011,Acute Care Hospitals,Government - State,Yes,Y,3,,Same as the national average,,Above the national average,,Below the national average,,Above the national average,,Same as the national average,,Below the national average,,Below the national average,,33.506129,-86.801922,,
17,10034,COMMUNITY HOSPITAL INC,805 FRIENDSHIP ROAD,TALLASSEE,AL,36078,ELMORE,3342836541,Acute Care Hospitals,Voluntary non-profit - Private,Yes,Y,4,,Same as the national average,,Not Available,Results are not available for this reporting period,Same as the national average,,Same as the national average,,Same as the national average,,Same as the national average,,Not Available,Results are not available for this reporting period,32.534187,-85.91225,,
18,10035,CULLMAN REGIONAL MEDICAL CENTER,1912 ALABAMA HIGHWAY 157,CULLMAN,AL,35058,CULLMAN,2567372000,Acute Care Hospitals,Government - Hospital District or Authority,Yes,Y,3,,Below the national average,,Above the national average,,Same as the national average,,Same as the national average,,Same as the national average,,Above the national average,,Same as the national average,,34.198579,-86.805369,,
19,10036,ANDALUSIA REGIONAL HOSPITAL,849 SOUTH THREE NOTCH STREET,ANDALUSIA,AL,36420,COVINGTON,3342228466,Acute Care Hospitals,Proprietary,Yes,Y,3,,Same as the national average,,Below the national average,,Below the national average,,Below the national average,,Same as the national average,,Above the national average,,Same as the national average,,31.2971,-86.495267,,
20,10038,STRINGFELLOW MEMORIAL HOSPITAL,301 EAST 18TH ST,ANNISTON,AL,36201,CALHOUN,2562358900,Acute Care Hospitals,Proprietary,Yes,Y,3,,Same as the national average,,Same as the national average,,Same as the national average,,Below the national average,,Same as the national average,,Above the national average,,Same as the national average,,33.667701,-85.825025,,
21,10039,HUNTSVILLE HOSPITAL,101 SIVLEY RD,HUNTSVILLE,AL,35801,MADISON,2562651000,Acute Care Hospitals,Government - Hospital District or Authority,Yes,Y,3,,Below the national average,,Above the national average,,Above the national average,,Same as the national average,,Same as the national average,,Below the national average,,Below the national average,,34.721226,-86.581547,,
22,10040,GADSDEN REGIONAL MEDICAL CENTER,1007 GOODYEAR AVENUE,GADSDEN,AL,35903,ETOWAH,2564944000,Acute Care Hospitals,Proprietary,Yes,Y,2,,Same as the national average,,Below the national average,,Below the national average,,Below the national average,,Below the national average,,Below the national average,,Same as the national average,,34.009389,-85.96752,,
23,10044,MARION REGIONAL MEDICAL CENTER,1256 MILITARY STREET SOUTH,HAMILTON,AL,35570,MARION,2059216200,Acute Care Hospitals,Voluntary non-profit - Private,Yes,Y,5,,Same as the national average,,Not Available,Results are not available for this reporting period,Same as the national average,,Above the national average,,Same as the national average,,Above the national average,,Not Available,Results are not available for this reporting period,34.125852,-87.989806,,
24,10045,FAYETTE MEDICAL CENTER,1653 TEMPLE AVENUE NORTH,FAYETTE,AL,35555,FAYETTE,2059325966,Acute Care Hospitals,Voluntary non-profit - Other,Yes,Y,4,,Same as the national average,,Not Available,Results are not available for this reporting period,Same as the national average,,Above the national average,,Same as the national average,,Above the national average,,Same as the national average,,33.70769,-87.823721,,
25,10046,RIVERVIEW REGIONAL MEDICAL CENTER,600 SOUTH THIRD STREET,GADSDEN,AL,35901,ETOWAH,2565435200,Acute Care Hospitals,Proprietary,Yes,Y,3,,Same as the national average,,Above the national average,,Same as the national average,,Below the national average,,Same as the national average,,Same as the national average,,Same as the national average,,34.003811,-86.004086,,
26,10047,GEORGIANA MEDICAL CENTER,515 N MIRANDA AVENUE,GEORGIANA,AL,36033,BUTLER,3343762205,Acute Care Hospitals,Proprietary,Yes,Y,3,,Not Available,Results are not available for this reporting period,Not Available,Results are not available for this reporting period,Same as the national average,,Same as the national average,,Same as the national average,,Above the national average,,Not Available,Results are not available for this reporting period,31.636337,-86.742999,,
27,10049,MEDICAL CENTER ENTERPRISE,400 N EDWARDS STREET,ENTERPRISE,AL,36330,COFFEE,3343470584,Acute Care Hospitals,Proprietary,Yes,Y,3,,Below the national average,,Same as the national average,,Above the national average,,Same as the national average,,Above the national average,,Same as the national average,,Same as the national average,,31.318084,-85.855215,,
28,10051,GREENE COUNTY HOSPITAL,509 WILSON AVENUE,EUTAW,AL,35462,GREENE,2053723388,Acute Care Hospitals,Government - Local,No,Y,3,,Same as the national average,,Not Available,Results are not available for this reporting period,Same as the national average,,Not Available,Results are not available for this reporting period,Same as the national average,,Above the national average,,Not Available,Results are not available for this reporting period,32.844744,-87.889307,,
29,10052,LAKE MARTIN COMMUNITY HOSPITAL,201 MARIARDEN ROAD,DADEVILLE,AL,36853,TALLAPOOSA,2568257821,Acute Care Hospitals,Proprietary,Yes,Y,3,,Same as the national average,,Not Available,Results are not available for this reporting period,Same as the national average,,Same as the national average,,Below the national average,,Above the national average,,Not Available,Results are not available for this reporting period,32.8187,-85.741758,,
30,10055,FLOWERS HOSPITAL,4370 WEST MAIN STREET,DOTHAN,AL,36305,HOUSTON,3347935000,Acute Care Hospitals,Proprietary,Yes,Y,4,,Below the national average,,Above the national average,,Above the national average,,Above the national average,,Same as the national average,,Above the national average,,Same as the national average,,31.235991,-85.457937,,
31,10056,ST VINCENT'S BIRMINGHAM,810 ST VINCENT'S DRIVE,BIRMINGHAM,AL,35205,JEFFERSON,2059397000,Acute Care Hospitals,Voluntary non-profit - Private,Yes,Y,3,,Same as the national average,,Below the national average,,Above the national average,,Above the national average,,Below the national average,,Below the national average,,Same as the national average,,33.507536,-86.789231,,
32,10058,BIBB MEDICAL CENTER,208 PIERSON AVE,CENTREVILLE,AL,35042,BIBB,2059264881,Acute Care Hospitals,Government - Hospital District or Authority,Yes,Y,Not Available,There are too few measures or measure groups reported to calculate a star rating or measure group score,Not Available,Results are not available for this reporting period,Not Available,Results are not available for this reporting period,Not Available,Results are not available for this reporting period,Not Available,Results are not available for this reporting period,Same as the national average,,Same as the national average,,Not Available,Results are not available for this reporting period,32.951237,-87.148081,,
33,10059,LAWRENCE MEDICAL CENTER,202 HOSPITAL STREET,MOULTON,AL,35650,LAWRENCE,2569742200,Acute Care Hospitals,Government - Hospital District or Authority,Yes,Y,4,,Same as the national average,,Not Available,Results are not available for this reporting period,Same as the national average,,Not Available,Results are not available for this reporting period,Same as the national average,,Above the national average,,Same as the national average,,34.482884,-87.286019,,
34,10061,HIGHLANDS MEDICAL CENTER,380 WOODS COVE ROAD,SCOTTSBORO,AL,35768,JACKSON,2562594444,Acute Care Hospitals,Government - Hospital District or Authority,Yes,Y,3,,Same as the national average,,Same as the national average,,Same as the national average,,Same as the national average,,Below the national average,,Same as the national average,,Same as the national average,,34.661724,-86.047465,,
35,10062,WIREGRASS MEDICAL CENTER,1200 W MAPLE AVENUE,GENEVA,AL,36340,GENEVA,3346843655,Acute Care Hospitals,Voluntary non-profit - Private,Yes,Y,3,,Same as the national average,,Not Available,Results are not available for this reporting period,Same as the national average,,Same as the national average,,Below the national average,,Above the national average,,Not Available,Results are not available for this reporting period,31.049,-85.89218,,
36,10065,RUSSELL HOSPITAL,3316 HIGHWAY 280,ALEXANDER CITY,AL,35010,TALLAPOOSA,2563297100,Acute Care Hospitals,Voluntary non-profit - Private,Yes,Y,3,,Same as the national average,,Below the national average,,Same as the national average,,Above the national average,,Same as the national average,,Same as the national average,,Same as the national average,,32.930727,-85.969728,,
37,10069,MEDICAL CENTER BARBOUR,820 W WASHINGTON ST,EUFAULA,AL,36027,BARBOUR,3346887271,Acute Care Hospitals,Government - Hospital District or Authority,Yes,Y,3,,Same as the national average,,Not Available,Results are not available for this reporting period,Same as the national average,,Same as the national average,,Same as the national average,,Above the national average,,Same as the national average,,31.88798,-85.156613,,
38,10073,CLAY COUNTY HOSPITAL,83825 HIGHWAY 9    P O BOX 1270,ASHLAND,AL,36251,CLAY,2563542131,Acute Care Hospitals,Government - Hospital District or Authority,Yes,Y,3,,Same as the national average,,Not Available,Results are not available for this reporting period,Same as the national average,,Same as the national average,,Below the national average,,Same as the national average,,Same as the national average,,33.276548,-85.823789,,
39,10078,NORTHEAST ALABAMA REGIONAL MEDICAL CENTER,400 EAST 10TH STREET,ANNISTON,AL,36207,CALHOUN,2562355121,Acute Care Hospitals,Government - Local,Yes,Y,2,,Same as the national average,,Below the national average,,Above the national average,,Same as the national average,,Same as the national average,,Same as the national average,,Same as the national average,,33.657123,-85.823353,,
40,10079,ATHENS LIMESTONE HOSPITAL,700 WEST MARKET STREET,ATHENS,AL,35611,LIMESTONE,2562339292,Acute Care Hospitals,Government - Hospital District or Authority,No,Y,2,,Same as the national average,,Same as the national average,,Below the national average,,Same as the national average,,Same as the national average,,Above the national average,,Below the national average,,34.803499,-86.977803,,
41,10083,SOUTH BALDWIN REGIONAL MEDICAL CENTER,1613 NORTH MCKENZIE STREET,FOLEY,AL,36535,BALDWIN,2519493400,Acute Care Hospitals,Proprietary,Yes,Y,3,,Same as the national average,,Below the national average,,Same as the national average,,Above the national average,,Same as the national average,,Same as the national average,,Below the national average,,30.426109,-87.683187,,
42,10085,DECATUR MORGAN HOSPITAL-DECATUR CAMPUS,1201 7TH STREET SE,DECATUR,AL,35601,MORGAN,2563412000,Acute Care Hospitals,Government - Hospital District or Authority,Yes,Y,2,,Same as the national average,,Below the national average,,Above the national average,,Below the national average,,Below the national average,,Same as the national average,,Below the national average,,34.591168,-86.972621,,
43,10086,NORTHWEST MEDICAL CENTER,1530 U S HIGHWAY 43,WINFIELD,AL,35594,MARION,2054877736,Acute Care Hospitals,Proprietary,Yes,Y,4,,Same as the national average,,Same as the national average,,Same as the national average,,Above the national average,,Same as the national average,,Above the national average,,Same as the national average,,33.929316,-87.824507,,
44,10087,UNIVERSITY OF SOUTH ALABAMA MEDICAL CENTER,2451 FILLINGIM STREET,MOBILE,AL,36617,MOBILE,2514717110,Acute Care Hospitals,Government - State,Yes,Y,3,,Same as the national average,,Same as the national average,,Below the national average,,Above the national average,,Same as the national average,,Below the national average,,Below the national average,,30.708187,-88.099011,,
45,10089,WALKER BAPTIST MEDICAL CENTER,3400 HIGHWAY 78 EAST,JASPER,AL,35502,WALKER,2053874000,Acute Care Hospitals,Voluntary non-profit - Private,Yes,Y,3,,Same as the national average,,Above the national average,,Same as the national average,,Below the national average,,Same as the national average,,Above the national average,,Same as the national average,,33.841142,-87.236879,,
46,10090,PROVIDENCE HOSPITAL,6801 AIRPORT BOULEVARD,MOBILE,AL,36608,MOBILE,2516331000,Acute Care Hospitals,Voluntary non-profit - Church,Yes,Y,2,,Below the national average,,Below the national average,,Same as the national average,,Below the national average,,Same as the national average,,Same as the national average,,Below the national average,,30.681482,-88.197854,,
47,10091,GROVE HILL MEMORIAL HOSPITAL,295 JACKSON HWY S,GROVE HILL,AL,36451,CLARKE,2512753191,Acute Care Hospitals,Government - Hospital District or Authority,Yes,Y,3,,Same as the national average,,Not Available,Results are not available for this reporting period,Same as the national average,,Same as the national average,,Below the national average,,Same as the national average,,Not Available,Results are not available for this reporting period,31.694213,-87.777231,,
48,10092,D C H REGIONAL MEDICAL CENTER,809 UNIVERSITY BOULEVARD EAST,TUSCALOOSA,AL,35401,TUSCALOOSA,2057597111,Acute Care Hospitals,Government - Hospital District or Authority,Yes,Y,2,,Below the national average,,Same as the national average,,Below the national average,,Same as the national average,,Same as the national average,,Below the national average,,Above the national average,,33.20613,-87.525154,,
49,10095,HALE COUNTY HOSPITAL,508 GREEN STREET,GREENSBORO,AL,36744,HALE,3346243024,Acute Care Hospitals,Government - Local,Yes,Y,Not Available,There are too few measures or measure groups reported to calculate a star rating or measure group score,Not Available,Results are not available for this reporting period,Not Available,Results are not available for this reporting period,Not Available,Results are not available for this reporting period,Not Available,Results are not available for this reporting period,Below the national average,,Same as the national average,,Not Available,Results are not available for this reporting period,32.412098,-87.018633,,
50,10097,ELMORE COMMUNITY HOSPITAL,500 HOSPITAL DRIVE,WETUMPKA,AL,36092,ELMORE,3345674311,Acute Care Hospitals,Government - State,Yes,Y,3,,Same as the national average,,Not Available,Results are not available for this reporting period,Same as the national average,,Same as the national average,,Same as the national average,,Above the national average,,Not Available,Results are not available for this reporting period,32.552319,-86.186383,,
51,10099,D W MCMILLAN MEMORIAL HOSPITAL,1301 BELLEVILLE AVENUE,BREWTON,AL,36426,ESCAMBIA,2518678061,Acute Care Hospitals,Government - Hospital District or Authority,Yes,Y,2,,Same as the national average,,Not Available,Results are not available for this reporting period,Same as the national average,,Same as the national average,,Same as the national average,,Above the national average,,Below the national average,,31.127105,-87.072378,,
52,10100,THOMAS HOSPITAL,750 MORPHY AVENUE,FAIRHOPE,AL,36532,BALDWIN,2519282375,Acute Care Hospitals,Government - Hospital District or Authority,Yes,Y,4,,Same as the national average,,Same as the national average,,Above the national average,,Above the national average,,Same as the national average,,Same as the national average,,Below the national average,,30.519999,-87.890333,,
53,10101,CITIZENS BAPTIST MEDICAL CENTER,604 STONE AVENUE,TALLADEGA,AL,35161,TALLADEGA,2567614542,Acute Care Hospitals,Voluntary non-profit - Private,Yes,Y,3,,Same as the national average,,Not Available,Results are not available for this reporting period,Same as the national average,,Below the national average,,Same as the national average,,Above the national average,,Same as the national average,,33.439801,-86.090641,,
54,10102,J PAUL JONES HOSPITAL,317 MCWILLIAMS AVENUE,CAMDEN,AL,36726,WILCOX,3346824131,Acute Care Hospitals,Voluntary non-profit - Other,Yes,Y,Not Available,There are too few measures or measure groups reported to calculate a star rating or measure group score,Not Available,Results are not available for this reporting period,Not Available,Results are not available for this reporting period,Not Available,Results are not available for this reporting period,Not Available,Results are not available for this reporting period,Same as the national average,,Same as the national average,,Not Available,Results are not available for this reporting period,31.996611,-87.299424,,
55,10103,PRINCETON BAPTIST MEDICAL CENTER,701 PRINCETON AVENUE SOUTHWEST,BIRMINGHAM,AL,35211,JEFFERSON,2057833800,Acute Care Hospitals,Voluntary non-profit - Church,Yes,Y,3,,Below the national average,,Above the national average,,Same as the national average,,Above the national average,,Same as the national average,,Below the national average,,Same as the national average,,33.49907,-86.845758,,
56,10104,GRANDVIEW MEDICAL CENTER,3690 GRANDVIEW PARKWAY,BIRMINGHAM,AL,35243,JEFFERSON,2055921000,Acute Care Hospitals,Proprietary,Yes,Y,2,,Below the national average,,Below the national average,,Same as the national average,,Above the national average,,Same as the national average,,Above the national average,,Same as the national average,,33.43248,-86.723028,,
57,10108,PRATTVILLE BAPTIST HOSPITAL,124 S MEMORIAL DR,PRATTVILLE,AL,36067,AUTAUGA,3343614267,Acute Care Hospitals,Government - Hospital District or Authority,Yes,Y,4,,Same as the national average,,Same as the national average,,Above the national average,,Above the national average,,Same as the national average,,Below the national average,,Same as the national average,,32.464423,-86.450936,,
58,10109,PICKENS COUNTY MEDICAL CENTER,241 ROBERT K WILSON DRIVE,CARROLLTON,AL,35447,PICKENS,2053678111,Acute Care Hospitals,Government - Hospital District or Authority,Yes,Y,3,,Same as the national average,,Not Available,Results are not available for this reporting period,Same as the national average,,Not Available,Results are not available for this reporting period,Below the national average,,Same as the national average,,Not Available,Results are not available for this reporting period,33.274807,-88.089673,,
59,10110,BULLOCK COUNTY HOSPITAL,102 WEST CONECUH AVENUE,UNION SPRINGS,AL,36089,BULLOCK,3347382140,Acute Care Hospitals,Proprietary,Yes,Y,3,,Same as the national average,,Not Available,Results are not available for this reporting period,Same as the national average,,Not Available,Results are not available for this reporting period,Same as the national average,,Above the national average,,Not Available,Results are not available for this reporting period,32.146182,-85.71638,,
60,10112,BRYAN W. WHITFIELD MEMORIAL HOSPITAL,105 HIGHWAY 80 EAST,DEMOPOLIS,AL,36732,MARENGO,3342894000,Acute Care Hospitals,Government - Hospital District or Authority,Yes,Y,3,,Same as the national average,,Not Available,Results are not available for this reporting period,Same as the national average,,Below the national average,,Same as the national average,,Same as the national average,,Same as the national average,,32.505925,-87.837276,,
61,10113,MOBILE INFIRMARY MEDICAL CENTER,5 MOBILE INFIRMARY CIRCLE,MOBILE,AL,36652,MOBILE,2514354700,Acute Care Hospitals,Voluntary non-profit - Private,Yes,Y,2,,Same as the national average,,Below the national average,,Below the national average,,Above the national average,,Same as the national average,,Below the national average,,Below the national average,,30.696642,-88.080858,,
62,10114,"MEDICAL WEST, AN AFFILIATE OF UAB HEALTH SYSTEM",995 9TH AVENUE SOUTHWEST,BESSEMER,AL,35021,JEFFERSON,2054817000,Acute Care Hospitals,Government - Hospital District or Authority,Yes,Y,3,,Same as the national average,,Same as the national average,,Above the national average,,Below the national average,,Same as the national average,,Above the national average,,Same as the national average,,33.372805,-86.991025,,
63,10118,VAUGHAN REGIONAL MEDICAL CENTER PARKWAY CAMPUS,1015 MEDICAL CENTER PARKWAY,SELMA,AL,36701,DALLAS,3344184100,Acute Care Hospitals,Proprietary,Yes,Y,3,,Same as the national average,,Above the national average,,Same as the national average,,Below the national average,,Same as the national average,,Same as the national average,,Same as the national average,,32.430248,-87.055174,,
64,10120,MONROE COUNTY HOSPITAL,"2016 SOUTH ALABAMA AVENUE, BOX 886",MONROEVILLE,AL,36460,MONROE,2515753111,Acute Care Hospitals,Government - Local,Yes,Y,3,,Same as the national average,,Not Available,Results are not available for this reporting period,Same as the national average,,Above the national average,,Same as the national average,,Above the national average,,Same as the national average,,31.497873,-87.320739,,
65,10125,LAKELAND COMMUNITY HOSPITAL,42024 HIGHWAY 195 E,HALEYVILLE,AL,35565,WINSTON,2054857117,Acute Care Hospitals,Voluntary non-profit - Church,Yes,Y,5,,Above the national average,,Not Available,Results are not available for this reporting period,Above the national average,,Same as the national average,,Same as the national average,,Above the national average,,Same as the national average,,34.241156,-87.590799,,
66,10126,TROY REGIONAL MEDICAL CENTER,1330 HIGHWAY 231 SOUTH,TROY,AL,36081,PIKE,3346705000,Acute Care Hospitals,Government - Federal,Yes,Y,3,,Same as the national average,,Same as the national average,,Same as the national average,,Same as the national average,,Same as the national average,,Above the national average,,Same as the national average,,31.780399,-85.945768,,
67,10128,JACKSON MEDICAL CENTER,220 HOSPITAL DRIVE,JACKSON,AL,36545,CLARKE,2512469021,Acute Care Hospitals,Proprietary,Yes,Y,3,,Same as the national average,,Not Available,Results are not available for this reporting period,Same as the national average,,Not Available,Results are not available for this reporting period,Same as the national average,,Same as the national average,,Not Available,Results are not available for this reporting period,31.531077,-87.894848,,
68,10129,NORTH BALDWIN INFIRMARY,1815 HAND AVENUE,BAY MINETTE,AL,36507,BALDWIN,2519375521,Acute Care Hospitals,Voluntary non-profit - Private,Yes,Y,2,,Same as the national average,,Not Available,Results are not available for this reporting period,Below the national average,,Same as the national average,,Same as the national average,,Same as the national average,,Not Available,Results are not available for this reporting period,30.902492,-87.783318,,
69,10130,ST VINCENT'S ST CLAIR,7063 VETERANS PARKWAY,PELL CITY,AL,35125,SAINT CLAIR,2053383301,Acute Care Hospitals,Voluntary non-profit - Private,Yes,Y,3,,Same as the national average,,Same as the national average,,Below the national average,,Above the national average,,Same as the national average,,Above the national average,,Below the national average,,33.605243,-86.299031,,
70,10131,CRESTWOOD MEDICAL CENTER,ONE HOSPITAL DR SE,HUNTSVILLE,AL,35801,MADISON,2568823100,Acute Care Hospitals,Proprietary,Yes,Y,3,,Below the national average,,Above the national average,,Same as the national average,,Same as the national average,,Same as the national average,,Same as the national average,,Same as the national average,,34.691966,-86.5726,,
71,10138,HILL HOSPITAL OF SUMTER COUNTY,751 DERBY DRIVE,YORK,AL,36925,SUMTER,2053925263,Acute Care Hospitals,Voluntary non-profit - Other,Yes,Y,Not Available,There are too few measures or measure groups reported to calculate a star rating or measure group score,Not Available,Results are not available for this reporting period,Not Available,Results are not available for this reporting period,Not Available,Results are not available for this reporting period,Not Available,Results are not available for this reporting period,Same as the national average,,Same as the national average,,Not Available,Results are not available for this reporting period,32.491825,-88.296081,,
72,10139,BROOKWOOD MEDICAL CENTER,2010 BROOKWOOD MEDICAL CENTER DRIVE,BIRMINGHAM,AL,35209,JEFFERSON,2058771000,Acute Care Hospitals,Proprietary,Yes,Y,3,,Same as the national average,,Same as the national average,,Same as the national average,,Below the national average,,Same as the national average,,Same as the national average,,Same as the national average,,33.46291,-86.77685,,
73,10144,SPRINGHILL MEMORIAL HOSPITAL,3719 DAUPHIN STREET,MOBILE,AL,36608,MOBILE,2513449630,Acute Care Hospitals,Proprietary,Yes,Y,2,,Same as the national average,,Below the national average,,Same as the national average,,Below the national average,,Same as the national average,,Same as the national average,,Below the national average,,30.685946,-88.131719,,
74,10146,RMC JACKSONVILLE,1701 SOUTH PELHAM ROAD,JACKSONVILLE,AL,36265,CALHOUN,2567824538,Acute Care Hospitals,Proprietary,Yes,Y,3,,Same as the national average,,Not Available,Results are not available for this reporting period,Same as the national average,,Same as the national average,,Same as the national average,,Same as the national average,,Below the national average,,33.785704,-85.761213,,
75,10148,EVERGREEN MEDICAL CENTER,101 CRESTVIEW AVENUE,EVERGREEN,AL,36401,CONECUH,2515782480,Acute Care Hospitals,Proprietary,Yes,Y,3,,Same as the national average,,Not Available,Results are not available for this reporting period,Same as the national average,,Above the national average,,Same as the national average,,Same as the national average,,Same as the national average,,31.43126,-86.94205,,
76,10149,BAPTIST MEDICAL CENTER EAST,400 TAYLOR ROAD,MONTGOMERY,AL,36117,MONTGOMERY,3342448330,Acute Care Hospitals,Government - Hospital District or Authority,Yes,Y,5,,Same as the national average,,Above the national average,,Above the national average,,Above the national average,,Same as the national average,,Below the national average,,Same as the national average,,32.376821,-86.172095,,
77,10150,L V STABLER MEMORIAL HOSPITAL,29 L V STABLER DRIVE,GREENVILLE,AL,36037,BUTLER,3343822200,Acute Care Hospitals,Proprietary,Yes,Y,3,,Same as the national average,,Same as the national average,,Same as the national average,,Same as the national average,,Same as the national average,,Above the national average,,Same as the national average,,31.82945,-86.64586,,
78,10157,SHOALS HOSPITAL,201 WEST AVALON AVENUE,MUSCLE SHOALS,AL,35661,COLBERT,2563861601,Acute Care Hospitals,Government - Hospital District or Authority,Yes,Y,3,,Same as the national average,,Same as the national average,,Same as the national average,,Below the national average,,Same as the national average,,Same as the national average,,Below the national average,,34.744941,-87.676511,,
79,10158,RUSSELLVILLE HOSPITAL,15155 HIGHWAY 43,RUSSELLVILLE,AL,35653,FRANKLIN,2563321611,Acute Care Hospitals,Proprietary,Yes,Y,3,,Same as the national average,,Same as the national average,,Below the national average,,Same as the national average,,Same as the national average,,Above the national average,,Same as the national average,,34.511165,-87.717585,,
80,10164,COOSA VALLEY MEDICAL CENTER,315 W HICKORY ST,SYLACAUGA,AL,35150,TALLADEGA,2562495000,Acute Care Hospitals,Voluntary non-profit - Other,Yes,Y,3,,Same as the national average,,Below the national average,,Same as the national average,,Same as the national average,,Same as the national average,,Same as the national average,,Same as the national average,,33.16472,-86.255364,,
81,10168,JACK HUGHSTON MEMORIAL HOSPITAL,4401 RIVER CHASE DRIVE,PHENIX CITY,AL,36867,RUSSELL,3347323000,Acute Care Hospitals,Government - State,Yes,Y,4,,Not Available,Results are not available for this reporting period,Above the national average,,Same as the national average,,Above the national average,,Same as the national average,,Same as the national average,,Not Available,Results are not available for this reporting period,32.509045,-85.005696,,
82,10169,ATMORE COMMUNITY HOSPITAL,401 MEDICAL PARK DRIVE,ATMORE,AL,36502,ESCAMBIA,2513682500,Acute Care Hospitals,Government - Hospital District or Authority,Yes,Y,4,,Same as the national average,,Not Available,Results are not available for this reporting period,Same as the national average,,Above the national average,,Same as the national average,,Above the national average,,Not Available,Results are not available for this reporting period,31.016579,-87.479654,,
83,10172,NORTH ALABAMA SPECIALITY HOSPITAL,"700 WEST MARKET STREET, 2ND FLOOR",ATHENS,AL,35611,LIMESTONE,2562339292,Acute Care Hospitals,Proprietary,No,,Not Available,Data are shown only for hospitals that participate in the Inpatient Quality Reporting (IQR) and Outpatient Quality Reporting (OQR) programs,Not Available,Data are shown only for hospitals that participate in the Inpatient Quality Reporting (IQR) and Outpatient Quality Reporting (OQR) programs,Not Available,Data are shown only for hospitals that participate in the Inpatient Quality Reporting (IQR) and Outpatient Quality Reporting (OQR) programs,Not Available,Data are shown only for hospitals that participate in the Inpatient Quality Reporting (IQR) and Outpatient Quality Reporting (OQR) programs,Not Available,Data are shown only for hospitals that participate in the Inpatient Quality Reporting (IQR) and Outpatient Quality Reporting (OQR) programs,Not Available,Data are shown only for hospitals that participate in the Inpatient Quality Reporting (IQR) and Outpatient Quality Reporting (OQR) programs,Not Available,Data are shown only for hospitals that participate in the Inpatient Quality Reporting (IQR) and Outpatient Quality Reporting (OQR) programs,Not Available,Data are shown only for hospitals that participate in the Inpatient Quality Reporting (IQR) and Outpatient Quality Reporting (OQR) programs,34.803499,-86.977803,,
84,11300,WASHINGTON COUNTY HOSPITAL,14600 ST. STEPHENS AVENUE,CHATOM,AL,36518,WASHINGTON,2518472223,Critical Access Hospitals,Proprietary,Yes,Y,Not Available,There are too few measures or measure groups reported to calculate a star rating or measure group score,Not Available,Results are not available for this reporting period,Not Available,Results are not available for this reporting period,Not Available,Results are not available for this reporting period,Not Available,Results are not available for this reporting period,Same as the national average,,Above the national average,,Not Available,Results are not available for this reporting period,31.460296,-88.235291,,
85,11302,RED BAY HOSPITAL,211 HOSPITAL ROAD,RED BAY,AL,35582,FRANKLIN,2563569532,Critical Access Hospitals,Government - Hospital District or Authority,Yes,Y,Not Available,There are too few measures or measure groups reported to calculate a star rating or measure group score,Not Available,Results are not available for this reporting period,Not Available,Results are not available for this reporting period,Same as the national average,,Not Available,Results are not available for this reporting period,Not Available,Results are not available for this reporting period,Not Available,Results are not available for this reporting period,Not Available,Results are not available for this reporting period,34.457425,-88.146934,,
86,11304,CHOCTAW GENERAL HOSPITAL,"401 VANITY FAIR LANE, PO BOX 618",BUTLER,AL,36904,CHOCTAW,2054599100,Critical Access Hospitals,Voluntary non-profit - Private,Yes,Y,Not Available,There are too few measures or measure groups reported to calculate a star rating or measure group score,Not Available,Results are not available for this reporting period,Not Available,Results are not available for this reporting period,Not Available,Results are not available for this reporting period,Not Available,Results are not available for this reporting period,Not Available,Results are not available for this reporting period,Same as the national average,,Not Available,Results are not available for this reporting period,32.105594,-88.227555,,
87,11305,ST VINCENTS BLOUNT,150 GILBREATH DRIVE,ONEONTA,AL,35121,BLOUNT,2052743000,Critical Access Hospitals,Voluntary non-profit - Private,No,Y,3,,Same as the national average,,Not Available,Results are not available for this reporting period,Same as the national average,,Above the national average,,Same as the national average,,Same as the national average,,Not Available,Results are not available for this reporting period,33.932537,-86.493059,,
88,13300,CHILDREN'S HOSPITAL OF ALABAMA,1600 SEVENTH AVENUE SOUTH,BIRMINGHAM,AL,35233,JEFFERSON,2059399100,Childrens,Voluntary non-profit - Private,Yes,Y,Not Available,Data are shown only for hospitals that participate in the Inpatient Quality Reporting (IQR) and Outpatient Quality Reporting (OQR) programs,Not Available,Data are shown only for hospitals that participate in the Inpatient Quality Reporting (IQR) and Outpatient Quality Reporting (OQR) programs,Not Available,Data are shown only for hospitals that participate in the Inpatient Quality Reporting (IQR) and Outpatient Quality Reporting (OQR) programs,Not Available,Data are shown only for hospitals that participate in the Inpatient Quality Reporting (IQR) and Outpatient Quality Reporting (OQR) programs,Not Available,Data are shown only for hospitals that participate in the Inpatient Quality Reporting (IQR) and Outpatient Quality Reporting (OQR) programs,Not Available,Data are shown only for hospitals that participate in the Inpatient Quality Reporting (IQR) and Outpatient Quality Reporting (OQR) programs,Not Available,Data are shown only for hospitals that participate in the Inpatient Quality Reporting (IQR) and Outpatient Quality Reporting (OQR) programs,Not Available,Data are shown only for hospitals that participate in the Inpatient Quality Reporting (IQR) and Outpatient Quality Reporting (OQR) programs,33.504031,-86.805639,,
89,13301,UNIVERSITY OF S A CHILDREN'S AND WOMEN'S HOS,1700 CENTER STREET,MOBILE,AL,36604,MOBILE,2514151000,Childrens,Government - State,Yes,Y,Not Available,Results are not available for this reporting period,Not Available,Results are not available for this reporting period,Not Available,Results are not available for this reporting period,Not Available,Results are not available for this reporting period,Not Available,Results are not available for this reporting period,Not Available,Results are not available for this reporting period,Not Available,Results are not available for this reporting period,Not Available,Results are not available for this reporting period,30.696082,-88.076883,,
90,20001,PROVIDENCE ALASKA MEDICAL CENTER,3200 PROVIDENCE DRIVE,ANCHORAGE,AK,99508,ANCHORAGE,9075622211,Acute Care Hospitals,Voluntary non-profit - Church,Yes,Y,3,,Same as the national average,,Below the national average,,Above the national average,,Same as the national average,,Same as the national average,,Below the national average,,Same as the national average,,61.188536,-149.818647,,
91,20006,MAT-SU REGIONAL MEDICAL CENTER,2500 SOUTH WOODWORTH LOOP,PALMER,AK,99645,MATANUSKA SUSITNA,9078616000,Acute Care Hospitals,Voluntary non-profit - Private,Yes,Y,3,,Same as the national average,,Same as the national average,,Same as the national average,,Below the national average,,Same as the national average,,Same as the national average,,Same as the national average,,61.561731,-149.260015,,
92,20008,BARTLETT REGIONAL HOSPITAL,3260 HOSPITAL DR,JUNEAU,AK,99801,JUNEAU,9077968900,Acute Care Hospitals,Government - Local,Yes,Y,3,,Same as the national average,,Same as the national average,,Same as the national average,,Same as the national average,,Same as the national average,,Same as the national average,,Not Available,Results are not available for this reporting period,58.328999,-134.465255,,
93,20012,FAIRBANKS MEMORIAL HOSPITAL,1650 COWLES STREET,FAIRBANKS,AK,99701,FAIRBANKS NORTH STAR,9074528181,Acute Care Hospitals,Voluntary non-profit - Other,Yes,Y,3,,Same as the national average,,Below the national average,,Above the national average,,Above the national average,,Same as the national average,,Same as the national average,,Same as the national average,,64.831416,-147.738788,,
94,20017,ALASKA REGIONAL HOSPITAL,2801 DEBARR ROAD,ANCHORAGE,AK,99508,ANCHORAGE,9072761131,Acute Care Hospitals,Proprietary,Yes,Y,3,,Same as the national average,,Below the national average,,Above the national average,,Same as the national average,,Same as the national average,,Same as the national average,,Not Available,Results are not available for this reporting period,61.210634,-149.82792,,
95,20018,YUKON KUSKOKWIM DELTA REG HOSPITAL,PO BOX 287,BETHEL,AK,99559,BETHEL,9075436300,Acute Care Hospitals,Tribal,Yes,Y,3,This hospital?s star rating only includes data reported on inpatient services,Same as the national average,,Not Available,Results are not available for this reporting period,Same as the national average,,Below the national average,,Not Available,Results are not available for this reporting period,Not Available,Results are not available for this reporting period,Not Available,Results are not available for this reporting period,61.078665,-160.742801,,
96,20026,ALASKA NATIVE MEDICAL CENTER,4315 DIPLOMACY DR,ANCHORAGE,AK,99508,ANCHORAGE,9075632662,Acute Care Hospitals,Government - Federal,Yes,Y,2,This hospital?s star rating only includes data reported on inpatient services,Same as the national average,,Below the national average,,Same as the national average,,Below the national average,,Below the national average,,Not Available,Results are not available for this reporting period,Not Available,Results are not available for this reporting period,61.18189,-149.800578,,
97,21303,SITKA COMMUNITY HOSPITAL,209 MOLLER DRIVE,SITKA,AK,99835,SITKA,9077473241,Critical Access Hospitals,Government - Local,Yes,Y,Not Available,There are too few measures or measure groups reported to calculate a star rating or measure group score,Not Available,Results are not available for this reporting period,Not Available,Results are not available for this reporting period,Not Available,Results are not available for this reporting period,Not Available,Results are not available for this reporting period,Not Available,Results are not available for this reporting period,Not Available,Results are not available for this reporting period,Not Available,Results are not available for this reporting period,57.058992,-135.345929,,
98,21306,PROVIDENCE KODIAK ISLAND MEDICAL CTR,1915 EAST REZANOF DRIVE,KODIAK,AK,99615,KODIAK ISLAND,9074869592,Critical Access Hospitals,Voluntary non-profit - Church,Yes,Y,Not Available,There are too few measures or measure groups reported to calculate a star rating or measure group score,Not Available,Results are not available for this reporting period,Not Available,Results are not available for this reporting period,Same as the national average,,Not Available,Results are not available for this reporting period,Not Available,Results are not available for this reporting period,Not Available,Results are not available for this reporting period,Not Available,Results are not available for this reporting period,57.801363,-152.374345,,
99,21308,NORTON SOUND REGIONAL HOSPITAL,1000 GREG KRUSCHEK AVENUE (P O BOX 966),NOME,AK,99762,NOME,9074433311,Critical Access Hospitals,Tribal,Yes,Y,Not Available,There are too few measures or measure groups reported to calculate a star rating or measure group score,Not Available,Results are not available for this reporting period,Not Available,Results are not available for this reporting period,Not Available,Results are not available for this reporting period,Not Available,Results are not available for this reporting period,Not Available,Results are not available for this reporting period,Not Available,Results are not available for this reporting period,Not Available,Results are not available for this reporting period,64.872342,-165.36665,,
100,21309,KANAKANAK HOSPITAL,P O BOX 130,DILLINGHAM,AK,99576,DILLINGHAM,9078425201,Critical Access Hospitals,Voluntary non-profit - Private,Yes,Y,Not Available,There are too few measures or measure groups reported to calculate a star rating or measure group score,Not Available,Results are not available for this reporting period,Not Available,Results are not available for this reporting period,Not Available,Results are not available for this reporting period,Not Available,Results are not available for this reporting period,Not Available,Results are not available for this reporting period,Not Available,Results are not available for this reporting period,Not Available,Results are not available for this reporting period,59.072133,-158.849308,,
101,21310,MANIILAQ HEALTH CENTER,PO BOX 43,KOTZEBUE,AK,99752,NORTHWEST ARCTIC,9074423321,Critical Access Hospitals,Tribal,Yes,Y,Not Available,Data are shown only for hospitals that participate in the Inpatient Quality Reporting (IQR) and Outpatient Quality Reporting (OQR) programs,Not Available,Data are shown only for hospitals that participate in the Inpatient Quality Reporting (IQR) and Outpatient Quality Reporting (OQR) programs,Not Available,Data are shown only for hospitals that participate in the Inpatient Quality Reporting (IQR) and Outpatient Quality Reporting (OQR) programs,Not Available,Data are shown only for hospitals that participate in the Inpatient Quality Reporting (IQR) and Outpatient Quality Reporting (OQR) programs,Not Available,Data are shown only for hospitals that participate in the Inpatient Quality Reporting (IQR) and Outpatient Quality Reporting (OQR) programs,Not Available,Data are shown only for hospitals that participate in the Inpatient Quality Reporting (IQR) and Outpatient Quality Reporting (OQR) programs,Not Available,Data are shown only for hospitals that participate in the Inpatient Quality Reporting (IQR) and Outpatient Quality Reporting (OQR) programs,Not Available,Data are shown only for hospitals that participate in the Inpatient Quality Reporting (IQR) and Outpatient Quality Reporting (OQR) programs,66.871797,-161.757251,,
102,21311,PEACEHEALTH KETCHIKAN MEDICAL CENTER,3100 TONGASS AVENUE,KETCHIKAN,AK,99901,KETCHIKAN GATEWAY,9072255171,Critical Access Hospitals,Voluntary non-profit - Church,Yes,Y,3,,Not Available,Results are not available for this reporting period,Not Available,Results are not available for this reporting period,Same as the national average,,Same as the national average,,Same as the national average,,Same as the national average,,Not Available,Results are not available for this reporting period,55.352717,-131.686049,,
103,21314,MT EDGECUMBE HOSPITAL,222 TONGASS DR,SITKA,AK,99835,SITKA,9079662411,Critical Access Hospitals,Voluntary non-profit - Private,Yes,,Not Available,There are too few measures or measure groups reported to calculate a star rating or measure group score,Not Available,Results are not available for this reporting period,Not Available,Results are not available for this reporting period,Not Available,Results are not available for this reporting period,Not Available,Results are not available for this reporting period,Not Available,Results are not available for this reporting period,Not Available,Results are not available for this reporting period,Not Available,Results are not available for this reporting period,57.052006,-135.355165,,
104,30001,ABRAZO MARYVALE CAMPUS,5102 WEST CAMPBELL AVENUE,PHOENIX,AZ,85031,MARICOPA,6238485000,Acute Care Hospitals,Proprietary,Yes,Y,2,,Same as the national average,,Same as the national average,,Same as the national average,,Below the national average,,Same as the national average,,Same as the national average,,Not Available,Results are not available for this reporting period,33.502148,-112.170002,,
105,30002,BANNER - UNIVERSITY MEDICAL CENTER PHOENIX,1111 EAST MCDOWELL ROAD,PHOENIX,AZ,85006,MARICOPA,6022392000,Acute Care Hospitals,Voluntary non-profit - Other,Yes,Y,3,,Same as the national average,,Same as the national average,,Same as the national average,,Same as the national average,,Same as the national average,,Below the national average,,Same as the national average,,33.465724,-112.058127,,
106,30006,TUCSON MEDICAL CENTER,5301 EAST GRANT ROAD,TUCSON,AZ,85712,PIMA,5203275461,Acute Care Hospitals,Voluntary non-profit - Private,Yes,Y,3,,Same as the national average,,Above the national average,,Above the national average,,Below the national average,,Same as the national average,,Below the national average,,Same as the national average,,32.250749,-110.880169,,
107,30007,VERDE VALLEY MEDICAL CENTER,269 SOUTH CANDY LANE,COTTONWOOD,AZ,86326,YAVAPAI,9286396058,Acute Care Hospitals,Voluntary non-profit - Private,Yes,Y,4,,Same as the national average,,Same as the national average,,Above the national average,,Above the national average,,Same as the national average,,Same as the national average,,Above the national average,,34.735403,-112.031605,,
108,30010,ST. MARY'S HOSPITAL,1601 WEST ST MARY'S ROAD,TUCSON,AZ,85745,PIMA,5208723000,Acute Care Hospitals,Voluntary non-profit - Private,Yes,Y,3,,Same as the national average,,Above the national average,,Above the national average,,Below the national average,,Above the national average,,Below the national average,,Same as the national average,,32.228884,-110.999567,,
109,30011,ST JOSEPH'S HOSPITAL,350 NORTH WILMOT ROAD,TUCSON,AZ,85711,PIMA,5208733000,Acute Care Hospitals,Voluntary non-profit - Other,Yes,Y,3,,Below the national average,,Above the national average,,Above the national average,,Below the national average,,Same as the national average,,Below the national average,,Same as the national average,,32.225946,-110.857838,,
110,30012,YAVAPAI REGIONAL MEDICAL CENTER,1003 WILLOW CREEK ROAD,PRESCOTT,AZ,86301,YAVAPAI,9284452700,Acute Care Hospitals,Government - Local,Yes,Y,2,,Below the national average,,Below the national average,,Same as the national average,,Above the national average,,Same as the national average,,Same as the national average,,Same as the national average,,34.55938,-112.482065,,
111,30013,YUMA REGIONAL MEDICAL CENTER,2400 SOUTH AVENUE A,YUMA,AZ,85364,YUMA,9283367600,Acute Care Hospitals,Voluntary non-profit - Private,Yes,Y,2,,Same as the national average,,Above the national average,,Below the national average,,Below the national average,,Same as the national average,,Below the national average,,Below the national average,,32.683899,-114.633238,,
112,30014,JOHN C. LINCOLN MEDICAL CENTER,250 EAST DUNLAP AVENUE,PHOENIX,AZ,85020,MARICOPA,6023315862,Acute Care Hospitals,Voluntary non-profit - Private,Yes,Y,3,,Same as the national average,,Same as the national average,,Above the national average,,Below the national average,,Same as the national average,,Same as the national average,,Same as the national average,,33.567754,-112.07063,,
113,30016,BANNER CASA GRANDE MEDICAL CENTER,1800 EAST FLORENCE BOULEVARD,CASA GRANDE,AZ,85222,PINAL,5203816300,Acute Care Hospitals,Voluntary non-profit - Other,Yes,Y,2,,Same as the national average,,Below the national average,,Same as the national average,,Below the national average,,Same as the national average,,Same as the national average,,Below the national average,,32.879608,-111.709253,,
114,30022,MARICOPA MEDICAL CENTER,2601 EAST ROOSEVELT STREET,PHOENIX,AZ,85008,MARICOPA,6023445011,Acute Care Hospitals,Government - Local,Yes,Y,2,,Not Available,Results are not available for this reporting period,Below the national average,,Same as the national average,,Below the national average,,Same as the national average,,Same as the national average,,Not Available,Results are not available for this reporting period,33.458525,-112.02643,,
115,30023,FLAGSTAFF MEDICAL CENTER,1200 NORTH BEAVER STREET,FLAGSTAFF,AZ,86001,COCONINO,9287793366,Acute Care Hospitals,Voluntary non-profit - Private,Yes,Y,4,,Same as the national average,,Below the national average,,Above the national average,,Above the national average,,Same as the national average,,Below the national average,,Same as the national average,,35.209534,-111.644835,,
116,30024,ST. JOSEPH'S HOSPITAL AND MEDICAL CENTER,350 WEST THOMAS ROAD,PHOENIX,AZ,85013,MARICOPA,6024065001,Acute Care Hospitals,Voluntary non-profit - Church,Yes,Y,3,,Above the national average,,Below the national average,,Above the national average,,Same as the national average,,Same as the national average,,Below the national average,,Same as the national average,,33.480294,-112.079208,,
117,30030,ABRAZO CENTRAL CAMPUS,2000 WEST BETHANY HOME ROAD,PHOENIX,AZ,85015,MARICOPA,6022490212,Acute Care Hospitals,Proprietary,Yes,Y,2,,Same as the national average,,Above the national average,,Below the national average,,Below the national average,,Below the national average,,Same as the national average,,Not Available,Results are not available for this reporting period,33.524116,-112.101934,,
118,30033,BANNER PAYSON MEDICAL CENTER,807 SOUTH PONDEROSA DRIVE,PAYSON,AZ,85541,GILA,9284743222,Acute Care Hospitals,Voluntary non-profit - Other,Yes,Y,3,,Same as the national average,,Same as the national average,,Same as the national average,,Below the national average,,Same as the national average,,Same as the national average,,Same as the national average,,34.231351,-111.321361,,
119,30036,CHANDLER REGIONAL MEDICAL CENTER,1955 WEST FRYE ROAD,CHANDLER,AZ,85224,MARICOPA,4807283000,Acute Care Hospitals,Voluntary non-profit - Other,Yes,Y,4,,Above the national average,,Below the national average,,Above the national average,,Below the national average,,Same as the national average,,Below the national average,,Above the national average,,33.29861,-111.876053,,
120,30037,ST LUKE'S MEDICAL CENTER,1800 EAST VAN BUREN STREET,PHOENIX,AZ,85006,MARICOPA,6022518156,Acute Care Hospitals,Proprietary,Yes,Y,3,,Same as the national average,,Above the national average,,Above the national average,,Below the national average,,Same as the national average,,Below the national average,,Not Available,Results are not available for this reporting period,33.451436,-112.042767,,
121,30038,SCOTTSDALE OSBORN MEDICAL CENTER,7400 EAST OSBORN ROAD,SCOTTSDALE,AZ,85251,MARICOPA,4808824004,Acute Care Hospitals,Proprietary,Yes,Y,3,,Same as the national average,,Below the national average,,Same as the national average,,Below the national average,,Same as the national average,,Above the national average,,Above the national average,,33.487639,-111.922725,,
122,30043,CANYON VISTA MEDICAL CENTER,5700 EAST HIGHWAY 90,SIERRA VISTA,AZ,85635,COCHISE,5204173001,Acute Care Hospitals,Voluntary non-profit - Other,Yes,Y,1,,Same as the national average,,Below the national average,,Same as the national average,,Below the national average,,Same as the national average,,Below the national average,,Same as the national average,,31.552594,-110.229811,,
123,30055,KINGMAN REGIONAL MEDICAL CENTER,3269 STOCKTON HILL ROAD,KINGMAN,AZ,86409,MOHAVE,9287572101,Acute Care Hospitals,Government - Hospital District or Authority,Yes,Y,2,,Above the national average,,Same as the national average,,Below the national average,,Same as the national average,,Same as the national average,,Same as the national average,,Below the national average,,35.219907,-114.035813,,
124,30061,BANNER BOSWELL MEDICAL CENTER,10401 WEST THUNDERBIRD BOULEVARD,SUN CITY,AZ,85351,MARICOPA,6238324000,Acute Care Hospitals,Voluntary non-profit - Other,Yes,Y,4,,Same as the national average,,Above the national average,,Above the national average,,Same as the national average,,Same as the national average,,Same as the national average,,Above the national average,,33.604802,-112.28344,,
125,30062,SUMMIT HEALTHCARE REGIONAL MEDICAL CENTER,2200 EAST SHOW LOW LAKE ROAD,SHOW LOW,AZ,85901,NAVAJO,9285376399,Acute Care Hospitals,Voluntary non-profit - Private,Yes,Y,4,,Same as the national average,,Below the national average,,Above the national average,,Same as the national average,,Below the national average,,Same as the national average,,Below the national average,,34.201967,-110.01839,,
126,30064,BANNER-UNIVERSITY MEDICAL CENTER TUCSON CAMPUS,1501 NORTH CAMPBELL AVENUE,TUCSON,AZ,85724,PIMA,5208744189,Acute Care Hospitals,Voluntary non-profit - Private,Yes,Y,1,,Same as the national average,,Below the national average,,Below the national average,,Below the national average,,Same as the national average,,Below the national average,,Above the national average,,32.240663,-110.944717,,
127,30065,BANNER DESERT MEDICAL CENTER,1400 SOUTH  DOBSON ROAD,MESA,AZ,85202,MARICOPA,4804123000,Acute Care Hospitals,Voluntary non-profit - Private,Yes,Y,3,,Same as the national average,,Above the national average,,Below the national average,,Below the national average,,Same as the national average,,Same as the national average,,Same as the national average,,33.39091,-111.874624,,
128,30068,MT. GRAHAM REGIONAL MEDICAL CENTER,1600 SOUTH 20TH AVENUE,SAFFORD,AZ,85546,GRAHAM,9283484000,Acute Care Hospitals,Government - Hospital District or Authority,Yes,Y,3,,Same as the national average,,Same as the national average,,Same as the national average,,Same as the national average,,Below the national average,,Same as the national average,,Same as the national average,,32.821883,-109.732994,,
129,30069,HAVASU REGIONAL MEDICAL CENTER,101 CIVIC CENTER LANE,LAKE HAVASU CITY,AZ,86403,MOHAVE,9288558185,Acute Care Hospitals,Proprietary,Yes,Y,2,,Same as the national average,,Same as the national average,,Below the national average,,Below the national average,,Same as the national average,,Above the national average,,Below the national average,,34.480306,-114.338739,,
130,30071,FORT DEFIANCE INDIAN HOSPITAL,PO BOX 649,FORT DEFIANCE,AZ,86504,APACHE,9287298000,Acute Care Hospitals,Government - Federal,Yes,Y,Not Available,There are too few measures or measure groups reported to calculate a star rating or measure group score,Not Available,Results are not available for this reporting period,Not Available,Results are not available for this reporting period,Same as the national average,,Not Available,Results are not available for this reporting period,Same as the national average,,Not Available,Results are not available for this reporting period,Not Available,Results are not available for this reporting period,35.74446,-109.076483,,
131,30073,TUBA CITY REGIONAL HEALTH CARE CORPORATION,PO BOX 600,TUBA CITY,AZ,86045,COCONINO,9282832501,Acute Care Hospitals,Voluntary non-profit - Other,No,Y,3,This hospital?s star rating only includes data reported on inpatient services,Not Available,Results are not available for this reporting period,Same as the national average,,Same as the national average,,Below the national average,,Same as the national average,,Not Available,Results are not available for this reporting period,Not Available,Results are not available for this reporting period,35.998009,-111.446591,,
132,30074,SELLS HOSPITAL,"HIGHWAY 86, AT TOPAWA ROAD",SELLS,AZ,85634,PIMA,5203627003,Acute Care Hospitals,Tribal,Yes,Y,Not Available,There are too few measures or measure groups reported to calculate a star rating or measure group score,Not Available,Results are not available for this reporting period,Not Available,Results are not available for this reporting period,Not Available,Results are not available for this reporting period,Not Available,Results are not available for this reporting period,Not Available,Results are not available for this reporting period,Not Available,Results are not available for this reporting period,Not Available,Results are not available for this reporting period,32.076696,-112.110739,,
133,30077,SAN CARLOS APACHE HEALTHCARE,103 MEDICINE WAY ROAD,PERIDOT,AZ,85542,GILA,9284751200,Acute Care Hospitals,Government - Federal,No,Y,Not Available,There are too few measures or measure groups reported to calculate a star rating or measure group score,Not Available,Results are not available for this reporting period,Not Available,Results are not available for this reporting period,Not Available,Results are not available for this reporting period,Not Available,Results are not available for this reporting period,Not Available,Results are not available for this reporting period,Not Available,Results are not available for this reporting period,Not Available,Results are not available for this reporting period,33.661394,-110.366617,,
134,30078,PHOENIX INDIAN MEDICAL CENTER,4212 NORTH 16TH STREET,PHOENIX,AZ,85016,MARICOPA,6022631200,Acute Care Hospitals,Government - Federal,No,Y,Not Available,There are too few measures or measure groups reported to calculate a star rating or measure group score,Not Available,Results are not available for this reporting period,Not Available,Results are not available for this reporting period,Not Available,Results are not available for this reporting period,Same as the national average,,Same as the national average,,Not Available,Results are not available for this reporting period,Not Available,Results are not available for this reporting period,33.49701,-112.047613,,
135,30083,ABRAZO SCOTTSDALE CAMPUS,3929 EAST BELL ROAD,PHOENIX,AZ,85032,MARICOPA,6029235000,Acute Care Hospitals,Proprietary,Yes,Y,2,,Same as the national average,,Same as the national average,,Same as the national average,,Below the national average,,Same as the national average,,Same as the national average,,Not Available,Results are not available for this reporting period,33.640603,-111.997692,,
136,30084,CHINLE COMPREHENSIVE HEALTH CARE FACILITY,"US HWY 191, HOSPITAL ROAD",CHINLE,AZ,86503,APACHE,9286747001,Acute Care Hospitals,Government - Federal,Yes,Y,3,This hospital?s star rating only includes data reported on inpatient services,Not Available,Results are not available for this reporting period,Not Available,Results are not available for this reporting period,Same as the national average,,Same as the national average,,Below the national average,,Not Available,Results are not available for this reporting period,Not Available,Results are not available for this reporting period,36.108413,-109.59595,,
137,30085,NORTHWEST MEDICAL CENTER,6200 NORTH LA CHOLLA BOULEVARD,TUCSON,AZ,85741,PIMA,5204698100,Acute Care Hospitals,Proprietary,Yes,Y,3,,Below the national average,,Above the national average,,Above the national average,,Below the national average,,Same as the national average,,Below the national average,,Same as the national average,,32.319581,-111.012054,,
138,30087,SCOTTSDALE SHEA MEDICAL CENTER,9003 EAST SHEA BOULEVARD,SCOTTSDALE,AZ,85260,MARICOPA,4803233000,Acute Care Hospitals,Proprietary,Yes,Y,3,,Same as the national average,,Below the national average,,Above the national average,,Above the national average,,Below the national average,,Above the national average,,Above the national average,,33.582467,-111.886032,,
139,30088,BANNER BAYWOOD MEDICAL CENTER,6644 EAST BAYWOOD AVENUE,MESA,AZ,85206,MARICOPA,4806845898,Acute Care Hospitals,Voluntary non-profit - Private,No,Y,4,,Above the national average,,Above the national average,,Above the national average,,Below the national average,,Same as the national average,,Same as the national average,,Above the national average,,33.410469,-111.687436,,
140,30089,BANNER THUNDERBIRD MEDICAL CENTER,5555 WEST THUNDERBIRD ROAD,GLENDALE,AZ,85306,MARICOPA,4806845898,Acute Care Hospitals,Government - Hospital District or Authority,Yes,Y,3,,Same as the national average,,Below the national average,,Above the national average,,Same as the national average,,Same as the national average,,Below the national average,,Above the national average,,33.610731,-112.1787,,
141,30092,HONORHEALTH DEER VALLEY MEDICAL CENTER,19829 NORTH 27TH AVENUE,PHOENIX,AZ,85027,MARICOPA,6238796100,Acute Care Hospitals,Voluntary non-profit - Private,Yes,Y,3,,Same as the national average,,Above the national average,,Same as the national average,,Below the national average,,Same as the national average,,Same as the national average,,Same as the national average,,33.666425,-112.117188,,
142,30093,BANNER DEL E. WEBB MEDICAL CENTER,14502 WEST MEEKER BOULEVARD,SUN CITY WEST,AZ,85375,MARICOPA,6235244000,Acute Care Hospitals,Voluntary non-profit - Private,Yes,Y,4,,Same as the national average,,Above the national average,,Above the national average,,Below the national average,,Same as the national average,,Same as the national average,,Same as the national average,,33.658307,-112.371939,,
143,30094,ABRAZO ARROWHEAD CAMPUS,18701 NORTH 67TH AVENUE,GLENDALE,AZ,85308,MARICOPA,6235611000,Acute Care Hospitals,Proprietary,Yes,Y,3,,Same as the national average,,Same as the national average,,Same as the national average,,Below the national average,,Below the national average,,Same as the national average,,Not Available,Results are not available for this reporting period,33.655042,-112.202889,,
144,30101,WESTERN ARIZONA REGIONAL MEDICAL CENTER,2735 SILVER CREEK ROAD,BULLHEAD CITY,AZ,86442,MOHAVE,9287632273,Acute Care Hospitals,Proprietary,Yes,Y,2,,Same as the national average,,Above the national average,,Below the national average,,Below the national average,,Same as the national average,,Below the national average,,Below the national average,,35.109853,-114.555146,,
145,30103,MAYO CLINIC HOSPITAL,5777 EAST MAYO BOULEVARD,PHOENIX,AZ,85054,MARICOPA,4803424201,Acute Care Hospitals,Voluntary non-profit - Private,Yes,Y,5,,Above the national average,,Above the national average,,Above the national average,,Above the national average,,Same as the national average,,Same as the national average,,Same as the national average,,33.659369,-111.956299,,
146,30105,BANNER HEART HOSPITAL,6750 EAST BAYWOOD AVENUE,MESA,AZ,85206,MARICOPA,4808545050,Acute Care Hospitals,Voluntary non-profit - Private,No,Y,5,,Above the national average,,Above the national average,,Above the national average,,Above the national average,,Not Available,Results are not available for this reporting period,Not Available,Results are not available for this reporting period,Not Available,Results are not available for this reporting period,33.410376,-111.685211,,
147,30107,ARIZONA SPINE AND JOINT HOSPITAL,4620 EAST BASELINE ROAD,MESA,AZ,85206,MARICOPA,4808324770,Acute Care Hospitals,Proprietary,No,Y,Not Available,There are too few measures or measure groups reported to calculate a star rating or measure group score,Not Available,Results are not available for this reporting period,Not Available,Results are not available for this reporting period,Not Available,Results are not available for this reporting period,Above the national average,,Not Available,Results are not available for this reporting period,Not Available,Results are not available for this reporting period,Not Available,Results are not available for this reporting period,33.380097,-111.734804,,
148,30108,"CORE INSTITUTE SPECIALTY HOSPITAL, THE",6501 NORTH 19TH AVENUE,PHOENIX,AZ,85015,MARICOPA,6027956020,Acute Care Hospitals,Proprietary,No,Y,Not Available,There are too few measures or measure groups reported to calculate a star rating or measure group score,Not Available,Results are not available for this reporting period,Not Available,Results are not available for this reporting period,Not Available,Results are not available for this reporting period,Above the national average,,Not Available,Results are not available for this reporting period,Not Available,Results are not available for this reporting period,Not Available,Results are not available for this reporting period,33.531837,-112.099614,,
149,30110,ABRAZO WEST CAMPUS,13677 WEST MCDOWELL ROAD,GOODYEAR,AZ,85395,MARICOPA,6238821515,Acute Care Hospitals,Proprietary,Yes,Y,2,,Same as the national average,,Below the national average,,Same as the national average,,Below the national average,,Below the national average,,Same as the national average,,Same as the national average,,33.464283,-112.354024,,
150,30111,BANNER-UNIVERSITY MEDICAL CENTER SOUTH CAMPUS,2800 EAST AJO WAY,TUCSON,AZ,85713,PIMA,5208742000,Acute Care Hospitals,Voluntary non-profit - Private,Yes,Y,2,,Same as the national average,,Below the national average,,Same as the national average,,Below the national average,,Same as the national average,,Below the national average,,Same as the national average,,32.177882,-110.930891,,
151,30112,ARIZONA SPECIALTY HOSPITAL,"2905 WEST WARNER ROAD, SUITE 1",CHANDLER,AZ,85224,MARICOPA,4806039000,Acute Care Hospitals,Proprietary,No,Y,Not Available,There are too few measures or measure groups reported to calculate a star rating or measure group score,Not Available,Results are not available for this reporting period,Not Available,Results are not available for this reporting period,Not Available,Results are not available for this reporting period,Above the national average,,Not Available,Results are not available for this reporting period,Not Available,Results are not available for this reporting period,Not Available,Results are not available for this reporting period,33.33484,-111.891133,,
152,30113,WHITERIVER PHS INDIAN HOSPITAL,200 WEST HOSPITAL DRIVE  (PO BOX 860),WHITERIVER,AZ,85941,NAVAJO,9283384911,Acute Care Hospitals,Government - Federal,No,Y,Not Available,There are too few measures or measure groups reported to calculate a star rating or measure group score,Not Available,Results are not available for this reporting period,Not Available,Results are not available for this reporting period,Not Available,Results are not available for this reporting period,Not Available,Results are not available for this reporting period,Same as the national average,,Not Available,Results are not available for this reporting period,Not Available,Results are not available for this reporting period,33.875976,-109.959528,,
153,30114,ORO VALLEY HOSPITAL,1551 EAST TANGERINE ROAD,ORO VALLEY,AZ,85755,PIMA,5209013549,Acute Care Hospitals,Proprietary,Yes,Y,3,,Same as the national average,,Below the national average,,Same as the national average,,Same as the national average,,Same as the national average,,Below the national average,,Same as the national average,,32.427182,-110.949545,,
154,30115,BANNER ESTRELLA MEDICAL CENTER,9201 WEST THOMAS ROAD,PHOENIX,AZ,85037,MARICOPA,6233274000,Acute Care Hospitals,Voluntary non-profit - Private,Yes,Y,4,,Same as the national average,,Same as the national average,,Above the national average,,Same as the national average,,Same as the national average,,Below the national average,,Above the national average,,33.479558,-112.257936,,
155,30117,VALLEY VIEW MEDICAL CENTER,5330 SOUTH HIGHWAY 95,FORT MOHAVE,AZ,86426,MOHAVE,9287887252,Acute Care Hospitals,Proprietary,Yes,Y,3,,Same as the national average,,Same as the national average,,Same as the national average,,Same as the national average,,Same as the national average,,Same as the national average,,Below the national average,,35.002363,-114.597954,,
156,30119,MERCY GILBERT MEDICAL CENTER,3555 SOUTH VAL VISTA DRIVE,GILBERT,AZ,85296,MARICOPA,4807288000,Acute Care Hospitals,Voluntary non-profit - Church,Yes,Y,4,,Above the national average,,Above the national average,,Same as the national average,,Below the national average,,Same as the national average,,Same as the national average,,Above the national average,,33.286661,-111.755311,,
157,30120,GILBERT HOSPITAL,5656 SOUTH POWER ROAD,GILBERT,AZ,85295,MARICOPA,4808403715,Acute Care Hospitals,Proprietary,Yes,Y,Not Available,There are too few measures or measure groups reported to calculate a star rating or measure group score,Not Available,Results are not available for this reporting period,Not Available,Results are not available for this reporting period,Not Available,Results are not available for this reporting period,Below the national average,,Same as the national average,,Same as the national average,,Not Available,Results are not available for this reporting period,33.313291,-111.686884,,
158,30121,"MOUNTAIN VISTA MEDICAL CENTER, LP",1301 SOUTH CRISMON ROAD,MESA,AZ,85209,MARICOPA,4803586100,Acute Care Hospitals,Proprietary,Yes,Y,1,,Same as the national average,,Below the national average,,Same as the national average,,Below the national average,,Same as the national average,,Below the national average,,Same as the national average,,33.3911,-111.615329,,
159,30122,BANNER GATEWAY MEDICAL CENTER,1900 NORTH HIGLEY ROAD,GILBERT,AZ,85234,MARICOPA,4805432000,Acute Care Hospitals,Voluntary non-profit - Other,Yes,Y,3,,Same as the national average,,Same as the national average,,Below the national average,,Above the national average,,Same as the national average,,Same as the national average,,Above the national average,,33.384225,-111.719634,,
160,30123,SCOTTSDALE THOMPSON PEAK MEDICAL CENTER,7400 EAST THOMPSON PEAK PARKWAY,SCOTTSDALE,AZ,85255,MARICOPA,4803247004,Acute Care Hospitals,Proprietary,Yes,Y,4,,Above the national average,,Same as the national average,,Above the national average,,Above the national average,,Same as the national average,,Above the national average,,Above the national average,,33.669777,-111.921803,,
161,30130,BANNER IRONWOOD MEDICAL CENTER,37000 NORTH GANTZEL ROAD,SAN TAN VALLEY,AZ,85140,PINAL,4803944030,Acute Care Hospitals,Voluntary non-profit - Private,Yes,Y,4,,Same as the national average,,Same as the national average,,Same as the national average,,Above the national average,,Same as the national average,,Same as the national average,,Not Available,Results are not available for this reporting period,33.214474,-111.56547,,
162,30131,O.A.S.I.S. HOSPITAL,750 NORTH 40TH STREET,PHOENIX,AZ,85008,MARICOPA,6027977700,Acute Care Hospitals,Voluntary non-profit - Private,No,Y,Not Available,There are too few measures or measure groups reported to calculate a star rating or measure group score,Not Available,Results are not available for this reporting period,Above the national average,,Not Available,Results are not available for this reporting period,Above the national average,,Not Available,Results are not available for this reporting period,Not Available,Results are not available for this reporting period,Not Available,Results are not available for this reporting period,33.456742,-111.996034,,
163,30132,"FLORENCE HOSPITAL AT ANTHEM, LLC",4545 NORTH HUNT HIGHWAY,FLORENCE,AZ,85132,PINAL,5204242060,Acute Care Hospitals,Proprietary,Yes,Y,3,,Not Available,Results are not available for this reporting period,Not Available,Results are not available for this reporting period,Same as the national average,,Same as the national average,,Same as the national average,,Above the national average,,Not Available,Results are not available for this reporting period,33.073607,-111.486843,,
164,30134,BANNER GOLDFIELD MEDICAL CENTER,2050 WEST SOUTHERN AVENUE,APACHE JUNCTION,AZ,85120,PINAL,4807333300,Acute Care Hospitals,Voluntary non-profit - Other,Yes,Y,3,,Not Available,Results are not available for this reporting period,Not Available,Results are not available for this reporting period,Same as the national average,,Above the national average,,Same as the national average,,Above the national average,,Not Available,Results are not available for this reporting period,33.393343,-111.566796,,
165,30136,DIGNITY HEALTH - ARIZONA GENERAL HOSPITAL,7171 SOUTH 51ST AVENUE,LAVEEN,AZ,85339,MARICOPA,6235845100,Acute Care Hospitals,Proprietary,Yes,,Not Available,There are too few measures or measure groups reported to calculate a star rating or measure group score,Not Available,Results are not available for this reporting period,Not Available,Results are not available for this reporting period,Not Available,Results are not available for this reporting period,Not Available,Results are not available for this reporting period,Same as the national average,,Same as the national average,,Not Available,Results are not available for this reporting period,33.380695,-112.165951,,
166,30137,GREEN VALLEY HOSPITAL,4455 SOUTH I-19 FRONTAGE ROAD,GREEN VALLEY,AZ,85614,PIMA,5203934710,Acute Care Hospitals,Proprietary,Yes,,Not Available,There are too few measures or measure groups reported to calculate a star rating or measure group score,Not Available,Results are not available for this reporting period,Not Available,Results are not available for this reporting period,Not Available,Results are not available for this reporting period,Not Available,Results are not available for this reporting period,Same as the national average,,Same as the national average,,Not Available,Results are not available for this reporting period,31.806684,-111.009431,,
167,31300,WICKENBURG COMMUNITY HOSPITAL,520 ROSE LANE,WICKENBURG,AZ,85390,MARICOPA,9286845421,Critical Access Hospitals,Voluntary non-profit - Private,Yes,Y,3,,Not Available,Results are not available for this reporting period,Not Available,Results are not available for this reporting period,Same as the national average,,Same as the national average,,Not Available,Results are not available for this reporting period,Not Available,Results are not available for this reporting period,Same as the national average,,33.978056,-112.738825,,
168,31301,BENSON HOSPITAL,450 SOUTH OCOTILLO AVENUE,BENSON,AZ,85602,COCHISE,5205862261,Critical Access Hospitals,Government - Hospital District or Authority,Yes,Y,Not Available,There are too few measures or measure groups reported to calculate a star rating or measure group score,Not Available,Results are not available for this reporting period,Not Available,Results are not available for this reporting period,Same as the national average,,Not Available,Results are not available for this reporting period,Not Available,Results are not available for this reporting period,Not Available,Results are not available for this reporting period,Not Available,Results are not available for this reporting period,31.964829,-110.307123,,
169,31302,"NORTHERN COCHISE COMMUNITY HOSPITAL, INC.",901 WEST REX ALLEN DRIVE,WILLCOX,AZ,85643,COCHISE,5203843541,Critical Access Hospitals,Government - Hospital District or Authority,Yes,Y,Not Available,There are too few measures or measure groups reported to calculate a star rating or measure group score,Not Available,Results are not available for this reporting period,Not Available,Results are not available for this reporting period,Same as the national average,,Not Available,Results are not available for this reporting period,Not Available,Results are not available for this reporting period,Not Available,Results are not available for this reporting period,Not Available,Results are not available for this reporting period,32.264268,-109.837613,,
170,31304,PAGE HOSPITAL,501 NORTH NAVAJO DRIVE,PAGE,AZ,86040,COCONINO,9286452424,Critical Access Hospitals,Government - Hospital District or Authority,Yes,Y,Not Available,There are too few measures or measure groups reported to calculate a star rating or measure group score,Not Available,Results are not available for this reporting period,Not Available,Results are not available for this reporting period,Not Available,Results are not available for this reporting period,Above the national average,,Same as the national average,,Above the national average,,Not Available,Results are not available for this reporting period,36.91696,-111.463186,,
171,31305,HOPI HEALTH CARE CENTER,"HIGHWAY 264, MILEPOST 388",POLACCA,AZ,86042,NAVAJO,9287376000,Critical Access Hospitals,Tribal,No,Y,Not Available,There are too few measures or measure groups reported to calculate a star rating or measure group score,Not Available,Results are not available for this reporting period,Not Available,Results are not available for this reporting period,Not Available,Results are not available for this reporting period,Not Available,Results are not available for this reporting period,Not Available,Results are not available for this reporting period,Not Available,Results are not available for this reporting period,Not Available,Results are not available for this reporting period,35.877149,-110.287697,,
172,31307,PARKER INDIAN HEALTH CENTER,12033 AGENCY ROAD,PARKER,AZ,85344,LA PAZ,9286692137,Critical Access Hospitals,Government - Federal,Yes,Y,Not Available,Data are shown only for hospitals that participate in the Inpatient Quality Reporting (IQR) and Outpatient Quality Reporting (OQR) programs,Not Available,Data are shown only for hospitals that participate in the Inpatient Quality Reporting (IQR) and Outpatient Quality Reporting (OQR) programs,Not Available,Data are shown only for hospitals that participate in the Inpatient Quality Reporting (IQR) and Outpatient Quality Reporting (OQR) programs,Not Available,Data are shown only for hospitals that participate in the Inpatient Quality Reporting (IQR) and Outpatient Quality Reporting (OQR) programs,Not Available,Data are shown only for hospitals that participate in the Inpatient Quality Reporting (IQR) and Outpatient Quality Reporting (OQR) programs,Not Available,Data are shown only for hospitals that participate in the Inpatient Quality Reporting (IQR) and Outpatient Quality Reporting (OQR) programs,Not Available,Data are shown only for hospitals that participate in the Inpatient Quality Reporting (IQR) and Outpatient Quality Reporting (OQR) programs,Not Available,Data are shown only for hospitals that participate in the Inpatient Quality Reporting (IQR) and Outpatient Quality Reporting (OQR) programs,34.146494,-114.301314,,
173,31308,HUHU KAM MEMORIAL HOSPITAL,483 WEST SEED FARM ROAD,SACATON,AZ,85147,PINAL,5205623321,Critical Access Hospitals,Government - Hospital District or Authority,Yes,Y,Not Available,Data are shown only for hospitals that participate in the Inpatient Quality Reporting (IQR) and Outpatient Quality Reporting (OQR) programs,Not Available,Data are shown only for hospitals that participate in the Inpatient Quality Reporting (IQR) and Outpatient Quality Reporting (OQR) programs,Not Available,Data are shown only for hospitals that participate in the Inpatient Quality Reporting (IQR) and Outpatient Quality Reporting (OQR) programs,Not Available,Data are shown only for hospitals that participate in the Inpatient Quality Reporting (IQR) and Outpatient Quality Reporting (OQR) programs,Not Available,Data are shown only for hospitals that participate in the Inpatient Quality Reporting (IQR) and Outpatient Quality Reporting (OQR) programs,Not Available,Data are shown only for hospitals that participate in the Inpatient Quality Reporting (IQR) and Outpatient Quality Reporting (OQR) programs,Not Available,Data are shown only for hospitals that participate in the Inpatient Quality Reporting (IQR) and Outpatient Quality Reporting (OQR) programs,Not Available,Data are shown only for hospitals that participate in the Inpatient Quality Reporting (IQR) and Outpatient Quality Reporting (OQR) programs,33.074127,-111.762158,,
174,31309,SAGE MEMORIAL HOSPITAL,STATE ROUTE 264 SOUTH 191,GANADO,AZ,86505,APACHE,9287554541,Critical Access Hospitals,Voluntary non-profit - Private,No,,Not Available,There are too few measures or measure groups reported to calculate a star rating or measure group score,Not Available,Results are not available for this reporting period,Not Available,Results are not available for this reporting period,Not Available,Results are not available for this reporting period,Not Available,Results are not available for this reporting period,Not Available,Results are not available for this reporting period,Same as the national average,,Not Available,Results are not available for this reporting period,35.602211,-109.414542,,
175,31311,LITTLE COLORADO MEDICAL CENTER,1501 NORTH WILLIAMSON AVENUE,WINSLOW,AZ,86047,NAVAJO,9282894691,Critical Access Hospitals,Voluntary non-profit - Private,Yes,Y,Not Available,There are too few measures or measure groups reported to calculate a star rating or measure group score,Not Available,Results are not available for this reporting period,Not Available,Results are not available for this reporting period,Same as the national average,,Same as the national average,,Not Available,Results are not available for this reporting period,Not Available,Results are not available for this reporting period,Not Available,Results are not available for this reporting period,35.035455,-110.691742,,
176,31312,COPPER QUEEN COMMUNITY HOSPITAL,101 COLE AVENUE,BISBEE,AZ,85603,COCHISE,5204326401,Critical Access Hospitals,Voluntary non-profit - Private,Yes,Y,Not Available,There are too few measures or measure groups reported to calculate a star rating or measure group score,Not Available,Results are not available for this reporting period,Not Available,Results are not available for this reporting period,Same as the national average,,Not Available,Results are not available for this reporting period,Not Available,Results are not available for this reporting period,Not Available,Results are not available for this reporting period,Not Available,Results are not available for this reporting period,31.417254,-109.8826,,
177,31313,HOLY CROSS HOSPITAL,1171 WEST TARGET RANGE ROAD,NOGALES,AZ,85621,SANTA CRUZ,5202853000,Critical Access Hospitals,Proprietary,Yes,Y,Not Available,There are too few measures or measure groups reported to calculate a star rating or measure group score,Not Available,Results are not available for this reporting period,Not Available,Results are not available for this reporting period,Not Available,Results are not available for this reporting period,Below the national average,,Same as the national average,,Same as the national average,,Not Available,Results are not available for this reporting period,31.341113,-110.958787,,
178,31314,COBRE VALLEY REGIONAL MEDICAL CENTER,5880 SOUTH HOSPITAL DRIVE,GLOBE,AZ,85501,GILA,9284021122,Critical Access Hospitals,Voluntary non-profit - Private,Yes,Y,3,,Above the national average,,Not Available,Results are not available for this reporting period,Same as the national average,,Below the national average,,Not Available,Results are not available for this reporting period,Same as the national average,,Same as the national average,,33.406063,-110.82681,,
179,31315,WHITE MOUNTAIN REGIONAL MEDICAL CENTER,118 SOUTH MOUNTAIN AVENUE,SPRINGERVILLE,AZ,85938,APACHE,9283334368,Critical Access Hospitals,Voluntary non-profit - Private,Yes,Y,Not Available,There are too few measures or measure groups reported to calculate a star rating or measure group score,Not Available,Results are not available for this reporting period,Not Available,Results are not available for this reporting period,Not Available,Results are not available for this reporting period,Not Available,Results are not available for this reporting period,Not Available,Results are not available for this reporting period,Not Available,Results are not available for this reporting period,Same as the national average,,34.132136,-109.286545,,
180,31317,LA PAZ REGIONAL HOSPITAL,1200 WEST MOHAVE ROAD,PARKER,AZ,85344,LA PAZ,9286699201,Critical Access Hospitals,Voluntary non-profit - Private,Yes,Y,3,This hospital?s star rating only includes data reported on inpatient services,Same as the national average,,Not Available,Results are not available for this reporting period,Same as the national average,,Same as the national average,,Not Available,Results are not available for this reporting period,Not Available,Results are not available for this reporting period,Not Available,Results are not available for this reporting period,34.135137,-114.285597,,
181,33301,"LOS NINOS HOSPITAL, INC.",2303 EAST THOMAS,PHOENIX,AZ,85016,MARICOPA,6029547311,Childrens,Voluntary non-profit - Private,No,Y,Not Available,Data are shown only for hospitals that participate in the Inpatient Quality Reporting (IQR) and Outpatient Quality Reporting (OQR) programs,Not Available,Data are shown only for hospitals that participate in the Inpatient Quality Reporting (IQR) and Outpatient Quality Reporting (OQR) programs,Not Available,Data are shown only for hospitals that participate in the Inpatient Quality Reporting (IQR) and Outpatient Quality Reporting (OQR) programs,Not Available,Data are shown only for hospitals that participate in the Inpatient Quality Reporting (IQR) and Outpatient Quality Reporting (OQR) programs,Not Available,Data are shown only for hospitals that participate in the Inpatient Quality Reporting (IQR) and Outpatient Quality Reporting (OQR) programs,Not Available,Data are shown only for hospitals that participate in the Inpatient Quality Reporting (IQR) and Outpatient Quality Reporting (OQR) programs,Not Available,Data are shown only for hospitals that participate in the Inpatient Quality Reporting (IQR) and Outpatient Quality Reporting (OQR) programs,Not Available,Data are shown only for hospitals that participate in the Inpatient Quality Reporting (IQR) and Outpatient Quality Reporting (OQR) programs,33.480287,-112.032316,,
182,33302,PHOENIX CHILDREN'S HOSPITAL,1919 EAST THOMAS ROAD,PHOENIX,AZ,85016,MARICOPA,6029331000,Childrens,Voluntary non-profit - Private,No,Y,Not Available,Results are not available for this reporting period,Not Available,Results are not available for this reporting period,Not Available,Results are not available for this reporting period,Not Available,Results are not available for this reporting period,Not Available,Results are not available for this reporting period,Not Available,Results are not available for this reporting period,Not Available,Results are not available for this reporting period,Not Available,Results are not available for this reporting period,33.480216,-112.041193,,
183,33303,"HACIENDA CHILDREN'S HOSPITAL, INC.",610 WEST JEROME AVENUE,MESA,AZ,85210,MARICOPA,6022434231,Childrens,Proprietary,No,Y,Not Available,Data are shown only for hospitals that participate in the Inpatient Quality Reporting (IQR) and Outpatient Quality Reporting (OQR) programs,Not Available,Data are shown only for hospitals that participate in the Inpatient Quality Reporting (IQR) and Outpatient Quality Reporting (OQR) programs,Not Available,Data are shown only for hospitals that participate in the Inpatient Quality Reporting (IQR) and Outpatient Quality Reporting (OQR) programs,Not Available,Data are shown only for hospitals that participate in the Inpatient Quality Reporting (IQR) and Outpatient Quality Reporting (OQR) programs,Not Available,Data are shown only for hospitals that participate in the Inpatient Quality Reporting (IQR) and Outpatient Quality Reporting (OQR) programs,Not Available,Data are shown only for hospitals that participate in the Inpatient Quality Reporting (IQR) and Outpatient Quality Reporting (OQR) programs,Not Available,Data are shown only for hospitals that participate in the Inpatient Quality Reporting (IQR) and Outpatient Quality Reporting (OQR) programs,Not Available,Data are shown only for hospitals that participate in the Inpatient Quality Reporting (IQR) and Outpatient Quality Reporting (OQR) programs,33.381488,-111.844894,,
184,40001,SILOAM SPRINGS REGIONAL HOSPITAL,603 NORTH PROGRESS AVENUE,SILOAM SPRINGS,AR,72761,BENTON,4795244141,Acute Care Hospitals,Voluntary non-profit - Other,Yes,Y,3,,Same as the national average,,Not Available,Results are not available for this reporting period,Same as the national average,,Same as the national average,,Same as the national average,,Same as the national average,,Same as the national average,,36.189711,-94.507912,,
185,40002,JOHNSON REGIONAL MEDICAL CENTER,1100 EAST POPLAR STREET,CLARKSVILLE,AR,72830,JOHNSON,4797545454,Acute Care Hospitals,Voluntary non-profit - Private,Yes,Y,3,,Same as the national average,,Same as the national average,,Same as the national average,,Same as the national average,,Below the national average,,Same as the national average,,Not Available,Results are not available for this reporting period,35.464384,-93.445797,,
186,40004,WASHINGTON REGIONAL MEDICAL CENTER,3215 N NORTH HILLS BOULEVARD,FAYETTEVILLE,AR,72703,WASHINGTON,4794635113,Acute Care Hospitals,Voluntary non-profit - Private,Yes,Y,3,,Below the national average,,Above the national average,,Above the national average,,Same as the national average,,Same as the national average,,Same as the national average,,Same as the national average,,36.109548,-94.159946,,
187,40007,CHI-ST VINCENT INFIRMARY,TWO ST VINCENT CIRCLE,LITTLE ROCK,AR,72205,PULASKI,5015523000,Acute Care Hospitals,Voluntary non-profit - Private,Yes,Y,2,,Below the national average,,Below the national average,,Below the national average,,Below the national average,,Same as the national average,,Same as the national average,,Same as the national average,,34.748861,-92.339882,,
188,40010,MERCY HOSPITAL NORTHWEST ARKANSAS,2710 SOUTH RIFE MEDICAL LANE,ROGERS,AR,72758,BENTON,4793388000,Acute Care Hospitals,Voluntary non-profit - Church,Yes,Y,4,,Same as the national average,,Above the national average,,Above the national average,,Same as the national average,,Above the national average,,Same as the national average,,Same as the national average,,36.309487,-94.183103,,
189,40011,CHAMBERS MEMORIAL HOSPITAL,719 DETROIT STREET,DANVILLE,AR,72833,YELL,4794952241,Acute Care Hospitals,Voluntary non-profit - Private,Yes,Y,3,,Same as the national average,,Not Available,Results are not available for this reporting period,Below the national average,,Same as the national average,,Same as the national average,,Above the national average,,Not Available,Results are not available for this reporting period,35.054468,-93.387555,,
190,40014,WHITE COUNTY MEDICAL CENTER,3214 EAST RACE AVENUE,SEARCY,AR,72143,WHITE,5012783100,Acute Care Hospitals,Voluntary non-profit - Private,Yes,Y,3,,Below the national average,,Above the national average,,Same as the national average,,Above the national average,,Same as the national average,,Above the national average,,Below the national average,,35.251377,-91.697349,,
191,40015,MENA REGIONAL HEALTH SYSTEM,311 NORTH MORROW STREET,MENA,AR,71953,POLK,4793946100,Acute Care Hospitals,Government - Local,Yes,Y,3,,Below the national average,,Not Available,Results are not available for this reporting period,Same as the national average,,Same as the national average,,Same as the national average,,Above the national average,,Same as the national average,,34.588582,-94.222504,,
192,40016,UAMS MEDICAL CENTER,4301 WEST MARKHAM STREET MAIL SLOT 612,LITTLE ROCK,AR,72205,PULASKI,5016865000,Acute Care Hospitals,Government - State,Yes,Y,1,,Same as the national average,,Below the national average,,Below the national average,,Below the national average,,Below the national average,,Below the national average,,Above the national average,,34.751583,-92.320998,,
193,40017,NORTH ARKANSAS REGIONAL MEDICAL CENTER,620 NORTH MAIN STREET,HARRISON,AR,72601,BOONE,8704144000,Acute Care Hospitals,Voluntary non-profit - Other,Yes,Y,3,,Same as the national average,,Above the national average,,Above the national average,,Same as the national average,,Same as the national average,,Same as the national average,,Below the national average,,36.236281,-93.107148,,
194,40018,SPARKS MEDICAL CENTER - VAN BUREN,EAST MAIN AND SOUTH 20TH STREET,VAN BUREN,AR,72956,CRAWFORD,4794743401,Acute Care Hospitals,Proprietary,Yes,Y,3,,Same as the national average,,Not Available,Results are not available for this reporting period,Same as the national average,,Same as the national average,,Same as the national average,,Above the national average,,Not Available,Results are not available for this reporting period,35.464129,-94.34098,,
195,40019,FORREST CITY MEDICAL CENTER,1601 NEWCASTLE ROAD,FORREST CITY,AR,72335,SAINT FRANCIS,8702610000,Acute Care Hospitals,Proprietary,Yes,Y,2,,Same as the national average,,Not Available,Results are not available for this reporting period,Same as the national average,,Below the national average,,Same as the national average,,Above the national average,,Same as the national average,,35.039275,-90.771894,,
196,40020,ST BERNARDS MEDICAL CENTER,225 E JACKSON,JONESBORO,AR,72401,CRAIGHEAD,8709724100,Acute Care Hospitals,Voluntary non-profit - Private,Yes,Y,1,,Below the national average,,Below the national average,,Below the national average,,Same as the national average,,Same as the national average,,Same as the national average,,Below the national average,,35.837427,-90.702062,,
197,40022,NORTHWEST MEDICAL CENTER-SPRINGDALE,609 WEST MAPLE AVENUE,SPRINGDALE,AR,72764,WASHINGTON,4797515711,Acute Care Hospitals,Proprietary,Yes,Y,3,,Below the national average,,Above the national average,,Below the national average,,Below the national average,,Same as the national average,,Above the national average,,Same as the national average,,36.180569,-94.136476,,
